t,x,y,z,vx,vy,vz,roll,pitch,yaw
0,0,0,0,-3.26925,-2.24539,0.204764,0.055126,-0.036166,-2.54026
0.0999946,-0.324125,-0.21914,0.0197971,-3.21331,-2.13803,0.191224,0.051932,-0.0364381,-2.53823
0.210009,-0.676351,-0.446559,0.0390994,-3.19027,-1.99635,0.159691,0.0523545,-0.0355508,-2.53323
0.310155,-0.994956,-0.640923,0.0530587,-3.17327,-1.88441,0.118999,0.0589418,-0.0353757,-2.52572
0.410073,-1.31051,-0.828287,0.0654684,-3.14348,-1.86497,0.129394,0.0649489,-0.0364696,-2.5164
0.520033,-1.65596,-1.03243,0.0791308,-3.13967,-1.84792,0.119102,0.0654025,-0.0372736,-2.50291
0.620034,-1.9684,-1.21831,0.093834,-3.10848,-1.87004,0.17493,0.0613316,-0.0375127,-2.48737
0.720035,-2.27844,-1.40677,0.111711,-3.09169,-1.90008,0.182567,0.0547572,-0.0361777,-2.47096
0.830247,-2.62169,-1.61506,0.127708,-3.13674,-1.88053,0.107778,0.0494113,-0.0367581,-2.45198
0.930031,-2.9369,-1.80244,0.137166,-3.18075,-1.87522,0.0818012,0.0489396,-0.0392926,-2.43403
1.03005,-3.25605,-1.99127,0.145971,-3.20074,-1.89962,0.0942886,0.052532,-0.0431849,-2.41583
1.14004,-3.60725,-2.2036,0.158582,-3.18445,-1.9604,0.135053,0.053978,-0.0482303,-2.39608
1.24005,-3.92534,-2.40276,0.173157,-3.17636,-2.02224,0.156442,0.052721,-0.0519575,-2.37776
1.3402,-4.24382,-2.60902,0.189086,-3.18242,-2.09711,0.161639,0.0473609,-0.0541851,-2.35972
1.45007,-4.59443,-2.84346,0.207313,-3.19858,-2.17149,0.170087,0.0396257,-0.0540834,-2.34103
1.55005,-4.90458,-3.0693,0.224634,-3.20656,-2.26186,0.18999,0.029295,-0.0487155,-2.32416
1.65007,-5.18626,-3.30877,0.246666,-3.15138,-2.32356,0.242758,0.015153,-0.0559538,-2.31246
1.76008,-5.54836,-3.54946,0.277801,-3.17035,-2.37812,0.28274,0.0119689,-0.0566079,-2.28235
1.8601,-5.79188,-3.77027,0.306205,-3.02554,-2.41815,0.249191,0.00455644,-0.0700307,-2.22984
1.9601,-5.9069,-4.27005,0.339545,-2.79607,-2.73578,0.176978,-0.0239104,-0.0738018,-2.2289
2.07011,-6.06924,-4.69898,0.382001,-2.58243,-2.91149,0.172,-0.0489955,-0.0873689,-2.19091
2.1701,-6.25199,-5.01136,0.39955,-2.54842,-2.93153,0.220629,-0.0519387,-0.0916391,-2.19727
2.27013,-6.45065,-5.46391,0.433626,-2.53308,-3.08031,0.256639,-0.0517128,-0.091656,-2.25347
2.38016,-6.75331,-5.99497,0.51622,-2.61799,-3.26577,0.261792,-0.0485014,-0.0691508,-2.30172
2.48011,-6.96923,-6.3486,0.568554,-2.54685,-3.27313,0.312552,-0.0499763,-0.0679888,-2.31051
2.59013,-7.3082,-6.75576,0.618,-2.56199,-3.21712,0.364647,-0.048268,-0.0579076,-2.32372
2.69012,-7.40186,-6.99539,0.659599,-2.40029,-2.98307,0.342127,-0.0487224,-0.0777587,-2.33161
2.79022,-7.83408,-7.39868,0.687438,-2.54512,-2.9833,0.259033,-0.0349426,-0.0689092,-2.35809
2.90011,-8.09965,-7.72036,0.720436,-2.47478,-2.90091,0.234469,-0.0429616,-0.0754351,-2.37356
3.00014,-8.35118,-8.00452,0.742044,-2.44407,-2.77488,0.254427,-0.0453508,-0.0829735,-2.38676
3.11015,-9.21365,-8.35168,0.81641,-2.88417,-2.81692,0.368511,-0.0743066,-0.0425509,-2.49626
3.21011,-9.54915,-8.64059,0.856489,-2.88622,-2.73336,0.414905,-0.0683413,-0.0408038,-2.51607
3.31044,-10.2412,-9.15584,0.882234,-3.18637,-2.77435,0.35504,-0.0394082,-0.0260413,-2.52029
3.42018,-10.659,-9.50514,0.919676,-3.24111,-2.69701,0.33139,-0.033794,-0.0256059,-2.54512
3.52019,-11.0072,-9.79153,0.953277,-3.26963,-2.58802,0.344904,-0.0307259,-0.0261253,-2.5679
3.62016,-11.3717,-10.0627,0.988911,-3.29639,-2.49478,0.361669,-0.0325592,-0.0231999,-2.5875
3.73019,-11.8391,-10.3844,1.02841,-3.37499,-2.40558,0.399364,-0.0321427,-0.0175615,-2.59734
3.83023,-12.1759,-10.611,1.06955,-3.37097,-2.29985,0.398329,-0.0322735,-0.0151975,-2.62059
3.93017,-12.5437,-10.8566,1.10571,-3.38855,-2.19671,0.361019,-0.0311226,-0.0147288,-2.63754
4.04018,-12.9328,-11.0897,1.13988,-3.41898,-2.06693,0.343146,-0.0243039,-0.012173,-2.65299
4.14016,-13.3001,-11.2504,1.17156,-3.44432,-1.9571,0.30367,-0.0193272,-0.0125679,-2.65424
4.24019,-13.6512,-11.4431,1.2013,-3.4337,-1.9009,0.291781,-0.0207323,-0.0135449,-2.67054
4.35046,-14.0601,-11.682,1.22834,-3.44724,-1.81103,0.313345,-0.0212448,-0.0128011,-2.68149
4.45022,-14.4332,-11.89,1.25639,-3.46425,-1.7274,0.332248,-0.0200377,-0.0112708,-2.68444
4.55021,-14.8983,-12.1866,1.27056,-3.505,-1.74958,0.344955,-0.0149614,-0.00550791,-2.68441
4.66021,-15.2906,-12.388,1.30114,-3.46198,-1.74797,0.33802,-0.0136523,-0.00442389,-2.68545
4.76022,-15.6957,-12.639,1.312,-3.4353,-1.75946,0.303632,-0.0151928,-0.00668817,-2.69211
4.86026,-16.0471,-12.8231,1.34099,-3.41007,-1.72674,0.298736,-0.015214,-0.006327,-2.68994
4.97024,-16.5643,-13.1838,1.35494,-3.4275,-1.81974,0.299994,-0.0179316,-0.00244218,-2.6783
5.07031,-17.1407,-13.6289,1.3562,-3.49443,-1.96027,0.289022,-0.0210464,0.00469473,-2.66732
5.17024,-17.6227,-14.0136,1.37656,-3.51595,-2.06935,0.284814,-0.0215919,0.00985137,-2.6765
5.28043,-18.0849,-14.2747,1.41628,-3.51719,-2.07397,0.297881,-0.0221242,0.00882876,-2.67103
5.38032,-18.5103,-14.6134,1.41573,-3.48,-2.157,0.298364,-0.0303059,0.0111539,-2.6759
5.48024,-18.9288,-14.8584,1.44556,-3.43965,-2.18445,0.301832,-0.0306377,0.00983006,-2.66899
5.59024,-20.1187,-15.7998,1.36851,-3.62662,-2.38575,0.2607,-0.0200689,0.00908988,-2.67979
5.69031,-20.4753,-16.0372,1.39351,-3.50102,-2.35933,0.238937,-0.0209193,0.00870001,-2.67361
5.79052,-20.8316,-16.2809,1.41692,-3.38205,-2.33184,0.237605,-0.0197674,0.00738655,-2.66873
5.9003,-21.2004,-16.5412,1.44302,-3.23208,-2.31246,0.246451,-0.0198016,0.00592478,-2.66105
6.00027,-21.5169,-16.7713,1.46792,-3.09888,-2.2891,0.251615,-0.0199593,0.00441981,-2.65354
6.10027,-21.8203,-16.9995,1.49357,-2.96967,-2.27529,0.261406,-0.0209023,0.00308756,-2.64448
6.20027,-22.1174,-17.226,1.51973,-2.85933,-2.24575,0.275346,-0.0177278,0.00487612,-2.63891
6.31043,-22.4657,-17.4788,1.55478,-2.75742,-2.22375,0.280587,-0.0140209,0.00574615,-2.64564
6.41039,-22.777,-17.6732,1.59704,-2.68447,-2.1923,0.296541,-0.00873444,0.00650276,-2.63545
6.51033,-23.0655,-17.8972,1.62725,-2.59669,-2.1957,0.294144,-0.00835788,0.00827914,-2.62996
6.62029,-23.3572,-18.1365,1.65964,-2.49367,-2.1755,0.29511,-0.00833832,0.0105916,-2.6194
6.72028,-23.5361,-18.2963,1.69562,-2.3563,-2.12419,0.300939,-0.00793505,0.0128491,-2.61649
6.82036,-23.7615,-18.5049,1.72064,-2.21188,-2.0894,0.297425,-0.00832505,0.0110078,-2.61055
6.9303,-23.9928,-18.7269,1.75879,-2.05588,-2.03877,0.294546,-0.0062407,0.00843162,-2.60596
7.03032,-24.1755,-18.9206,1.78687,-1.90979,-1.98748,0.288788,-0.00797652,0.0110829,-2.60058
7.13034,-24.3404,-19.1031,1.81456,-1.76802,-1.93148,0.285982,-0.00936422,0.0109557,-2.5948
7.24033,-24.5481,-19.3192,1.84479,-1.69537,-1.90059,0.275442,-0.00656104,0.0138884,-2.58931
7.34043,-24.4104,-19.3702,1.8739,-1.51315,-1.88742,0.260443,-0.00933168,0.0151351,-2.59901
7.44031,-24.528,-19.5456,1.90511,-1.42898,-1.86902,0.261072,-0.00790948,0.0140548,-2.59261
7.55035,-24.681,-19.75,1.93363,-1.3525,-1.8452,0.257194,-0.00718756,0.0116764,-2.58471
7.65033,-24.8301,-19.9301,1.95925,-1.28012,-1.83049,0.242667,-0.0052576,0.00925492,-2.58385
7.7504,-24.9693,-20.1157,1.98424,-1.21093,-1.79529,0.257543,-0.0041589,0.0101229,-2.57981
7.86042,-25.3387,-20.1894,1.97775,-1.25035,-1.61893,0.237479,0.00314925,0.0125408,-2.55981
7.96042,-25.7184,-20.4478,1.95635,-1.23339,-1.57451,0.217838,0.00406957,0.0126419,-2.55104
8.0604,-25.8373,-20.6025,1.97783,-1.14444,-1.52077,0.211837,0.00420279,0.0135191,-2.54444
8.1704,-25.9606,-20.7686,2.00012,-1.08897,-1.49291,0.193685,0.0037097,0.0148713,-2.53731
8.27042,-26.0703,-20.9183,2.01949,-1.07219,-1.48729,0.192332,0.00309242,0.0161959,-2.53157
8.38057,-26.1884,-21.0815,2.04039,-1.07191,-1.48839,0.198178,0.00228304,0.0177023,-2.52745
8.48047,-26.7017,-21.3104,2.04116,-1.19971,-1.49253,0.186991,-0.00739118,0.0225814,-2.52717
8.5804,-26.8227,-21.4591,2.05921,-1.20116,-1.49825,0.183643,-0.00483852,0.0238336,-2.51913
8.69043,-26.9517,-21.6188,2.07815,-1.20708,-1.53182,0.173127,-0.00239684,0.0247492,-2.51184
8.79066,-27.3537,-21.6446,2.02396,-1.34363,-1.41495,0.0999932,0.011779,0.0181115,-2.49498
8.89049,-27.378,-21.6654,2.01826,-1.37134,-1.41825,0.068456,0.00942387,0.0156746,-2.48422
9.00043,-27.3122,-21.5742,1.99643,-1.44422,-1.456,0.0445318,0.00627466,0.0118542,-2.46918
9.10045,-27.5148,-21.7738,1.99513,-1.48085,-1.52877,0.0541731,0.00269053,0.00972939,-2.45972
9.20045,-27.6291,-21.8657,1.99975,-1.56961,-1.61959,0.0771149,0.00144859,0.00787892,-2.44359
9.30062,-27.7729,-22.0146,2.00999,-1.65706,-1.71852,0.117192,0.001249,0.00864369,-2.42221
9.41048,-27.9577,-22.2072,2.02323,-1.75372,-1.84075,0.123879,0.00264205,0.0116813,-2.39628
9.51049,-28.1688,-22.3982,2.03758,-1.83968,-1.94839,0.0983988,0.00996301,0.0122329,-2.39046
9.61049,-28.3512,-22.5913,2.05009,-1.89344,-2.08002,0.0786085,0.00829566,0.0129666,-2.36138
9.72046,-28.4908,-22.7342,2.0714,-1.93607,-2.24086,0.0796866,0.00620145,0.0151116,-2.33749
9.82052,-28.4177,-22.7173,2.06687,-1.89739,-2.3642,0.0388348,0.00325043,0.0162331,-2.31084
9.92043,-28.5778,-22.9248,2.07273,-1.9028,-2.50914,0.0127303,0.00207037,0.0188244,-2.27323
10.0304,-28.7907,-23.2107,2.0733,-1.90253,-2.67377,-0.01477,0.00268798,0.0193286,-2.23071
10.1304,-28.9886,-23.4873,2.07461,-1.89706,-2.83048,0.0119858,0.00501522,0.0200686,-2.19555
10.2305,-29.1874,-23.7786,2.0789,-1.86061,-2.99213,0.0451825,0.00664536,0.0230163,-2.16226
10.3306,-29.3725,-24.0865,2.08158,-1.82544,-3.14688,0.0161284,0.00608358,0.0270446,-2.12029
10.4404,-29.5718,-24.4424,2.0832,-1.77627,-3.3224,0.0123125,0.00812715,0.0317595,-2.07092
10.5405,-29.6733,-24.7581,2.07714,-1.67295,-3.5072,0.00371837,-0.00349599,0.0308095,-2.03871
10.6405,-29.8569,-25.1233,2.07589,-1.60883,-3.65131,-0.0273538,0.00375933,0.0351689,-1.99374
10.7504,-30.0426,-25.5451,2.06904,-1.50568,-3.84782,-0.103607,0.0102225,0.033201,-1.94589
10.8505,-30.1964,-25.9487,2.06226,-1.38378,-4.0553,-0.149135,0.0130686,0.0292864,-1.9008
10.9505,-30.3315,-26.3811,2.04333,-1.25365,-4.27405,-0.128932,0.0104658,0.0282695,-1.85334
11.0605,-30.3136,-26.8443,2.02633,-1.03277,-4.54613,-0.156309,-0.000837148,0.0337226,-1.80609
11.1605,-30.4114,-27.3084,2.00653,-0.92165,-4.73603,-0.239682,-0.00118782,0.0336207,-1.75847
11.2705,-30.7583,-27.9853,2.02221,-0.921182,-4.81583,-0.192149,0.0176166,0.00591292,-1.7123
11.3706,-30.7188,-28.4449,2.01184,-0.757277,-5.03564,-0.0729632,0.00646716,0.0104477,-1.69106
11.4705,-30.3731,-28.7088,2.0287,-0.468963,-5.22351,-0.0746405,0.000531796,0.0183215,-1.65663
11.5705,-30.4208,-29.2669,2.03217,-0.264071,-5.3839,-0.11095,0.00649714,0.0167936,-1.61792
11.6805,-30.3848,-29.8928,2.03814,0.0849443,-5.60872,-0.123247,-0.000767025,0.0184252,-1.58127
11.7807,-30.1019,-30.3642,2.05939,0.422346,-5.81722,-0.15012,-0.00404788,0.0237754,-1.54322
11.8805,-30.0745,-31.012,2.04362,0.620593,-5.99123,-0.173064,-0.0107706,0.0231785,-1.51283
11.9905,-29.9244,-31.6583,2.02041,0.837317,-6.18419,-0.184427,-0.0141455,0.0226724,-1.48127
12.0905,-29.2612,-31.7424,1.95111,1.00788,-6.173,-0.164508,0.0134295,0.0234279,-1.47927
12.1905,-29.2539,-32.5536,1.95292,1.2587,-6.36302,-0.163027,0.00619371,0.00271353,-1.46332
12.3007,-28.9318,-33.2192,1.98189,1.5763,-6.59403,-0.162814,-0.0100268,0.00665894,-1.45155
12.4006,-27.8692,-33.1308,2.08207,1.92493,-6.47356,-0.145149,-0.0193338,0.0084729,-1.46132
12.5006,-27.6556,-34.1087,2.15639,2.22671,-7.24802,-0.148216,-0.0585192,0.034034,-1.45699
12.6106,-27.3877,-34.8223,2.19167,2.3691,-7.30112,-0.0443279,-0.0496345,0.0320127,-1.43914
12.7106,-27.0743,-35.4857,2.23865,2.52409,-7.4545,-0.0268853,-0.0529758,0.0470924,-1.43158
12.8108,-26.9086,-36.2926,2.26463,2.62172,-7.53357,-0.0870403,-0.0369588,0.0467898,-1.42141
